{
"type": "FeatureCollection",
"crs": { "type": "name", "properties": { "name": "urn:ogc:def:crs:OGC:1.3:CRS84" } },
"features": [
{ "type": "Feature", "properties": { "name": "Andres Fernando Elementary School Pt 1", "city": "Valenzuela City", "star_rating": 5.0, "year": 2019, "intervention": null }, "geometry": { "type": "Point", "coordinates": [ 120.955573397715369, 14.717059108937573 ] } },
{ "type": "Feature", "properties": { "name": "Andres Fernando Elementary School Pt 2", "city": "Valenzuela City", "star_rating": 5.0, "year": 2019, "intervention": null }, "geometry": { "type": "Point", "coordinates": [ 120.955573397715369, 14.717059108937573 ] } },
{ "type": "Feature", "properties": { "name": "Andres Mariano Elementary School", "city": "Valenzuela City", "star_rating": 5.0, "year": 2019, "intervention": null }, "geometry": { "type": "Point", "coordinates": [ 120.999964542154515, 14.713937046012241 ] } },
{ "type": "Feature", "properties": { "name": "Apolonia Rafael Elementary School", "city": "Valenzuela City", "star_rating": 5.0, "year": 2019, "intervention": null }, "geometry": { "type": "Point", "coordinates": [ 121.000236342328748, 14.701957455128843 ] } },
{ "type": "Feature", "properties": { "name": "Bitik Elementary School", "city": "Valenzuela City", "star_rating": 4.0, "year": 2019, "intervention": null }, "geometry": { "type": "Point", "coordinates": [ 120.986644883537593, 14.679973350000385 ] } },
{ "type": "Feature", "properties": { "name": "Canumay East Elementary School", "city": "Valenzuela City", "star_rating": 5.0, "year": 2019, "intervention": null }, "geometry": { "type": "Point", "coordinates": [ 120.993770539356902, 14.719500655600276 ] } },
{ "type": "Feature", "properties": { "name": "Canumay West Pt 1", "city": "Valenzuela City", "star_rating": 5.0, "year": 2019, "intervention": null }, "geometry": { "type": "Point", "coordinates": [ 120.989610210653055, 14.712424611682311 ] } },
{ "type": "Feature", "properties": { "name": "Canumay West Pt 2", "city": "Valenzuela City", "star_rating": 5.0, "year": 2019, "intervention": null }, "geometry": { "type": "Point", "coordinates": [ 120.989610210653055, 14.712424611682311 ] } },
{ "type": "Feature", "properties": { "name": "Caruhatan East Elementary School", "city": "Valenzuela City", "star_rating": 5.0, "year": 2019, "intervention": null }, "geometry": { "type": "Point", "coordinates": [ 120.976104368192907, 14.691062117331887 ] } },
{ "type": "Feature", "properties": { "name": "Dona Ata Elementary School", "city": "Valenzuela City", "star_rating": 5.0, "year": 2019, "intervention": null }, "geometry": { "type": "Point", "coordinates": [ 120.984547725865113, 14.677415028366564 ] } },
{ "type": "Feature", "properties": { "name": "Gen T De Leon Elementary School", "city": "Valenzuela City", "star_rating": 5.0, "year": 2019, "intervention": null }, "geometry": { "type": "Point", "coordinates": [ 120.987373854701616, 14.684690707434097 ] } },
{ "type": "Feature", "properties": { "name": "Lawang Bato Pt 1", "city": "Valenzuela City", "star_rating": 4.0, "year": 2019, "intervention": null }, "geometry": { "type": "Point", "coordinates": [ 120.995741415344995, 14.730763883325288 ] } },
{ "type": "Feature", "properties": { "name": "Lawang Bato Pt 2", "city": "Valenzuela City", "star_rating": 4.0, "year": 2019, "intervention": null }, "geometry": { "type": "Point", "coordinates": [ 120.995741415344995, 14.730763883325288 ] } },
{ "type": "Feature", "properties": { "name": "Luis Francisco Elementary School", "city": "Valenzuela City", "star_rating": 5.0, "year": 2019, "intervention": null }, "geometry": { "type": "Point", "coordinates": [ 120.965976697029546, 14.721407879233469 ] } },
{ "type": "Feature", "properties": { "name": "Malinta Elementary School Pt 1", "city": "Valenzuela City", "star_rating": 5.0, "year": 2019, "intervention": null }, "geometry": { "type": "Point", "coordinates": [ 120.965928684687043, 14.691938440779314 ] } },
{ "type": "Feature", "properties": { "name": "Malinta Elementary School Pt 2", "city": "Valenzuela City", "star_rating": 5.0, "year": 2019, "intervention": null }, "geometry": { "type": "Point", "coordinates": [ 120.965928684687043, 14.691938440779314 ] } },
{ "type": "Feature", "properties": { "name": "Marulas Elem School", "city": "Valenzuela City", "star_rating": 4.0, "year": 2019, "intervention": "Y" }, "geometry": { "type": "Point", "coordinates": [ 120.985032429557606, 14.675756967865565 ] } },
{ "type": "Feature", "properties": { "name": "Maysan Elem School", "city": "Valenzuela City", "star_rating": 4.0, "year": 2019, "intervention": null }, "geometry": { "type": "Point", "coordinates": [ 120.979682285879036, 14.699584181554238 ] } },
{ "type": "Feature", "properties": { "name": "Parada Elem School", "city": "Valenzuela City", "star_rating": 3.0, "year": 2019, "intervention": "Y" }, "geometry": { "type": "Point", "coordinates": [ 120.987720311301359, 14.698110446335619 ] } },
{ "type": "Feature", "properties": { "name": "Paso De Blas", "city": "Valenzuela City", "star_rating": 5.0, "year": 2019, "intervention": null }, "geometry": { "type": "Point", "coordinates": [ 120.991076218413625, 14.705373819716609 ] } },
{ "type": "Feature", "properties": { "name": "Pasolo Elementary School", "city": "Valenzuela City", "star_rating": 5.0, "year": 2019, "intervention": "Y" }, "geometry": { "type": "Point", "coordinates": [ 120.95449376806144, 14.705926047673804 ] } },
{ "type": "Feature", "properties": { "name": "Pio Valenzuela Elem School", "city": "Valenzuela City", "star_rating": 5.0, "year": 2019, "intervention": null }, "geometry": { "type": "Point", "coordinates": [ 120.945678874747045, 14.706265288555965 ] } },
{ "type": "Feature", "properties": { "name": "Rincon Elementary School", "city": "Valenzuela City", "star_rating": 5.0, "year": 2019, "intervention": null }, "geometry": { "type": "Point", "coordinates": [ 120.960007665894395, 14.699805090890488 ] } },
{ "type": "Feature", "properties": { "name": "Roberta De Jesus Elementary School", "city": "Valenzuela City", "star_rating": 5.0, "year": 2019, "intervention": null }, "geometry": { "type": "Point", "coordinates": [ 121.003227552647004, 14.74543355289183 ] } },
{ "type": "Feature", "properties": { "name": "San Miguel Heights Elementary School", "city": "Valenzuela City", "star_rating": 5.0, "year": 2019, "intervention": null }, "geometry": { "type": "Point", "coordinates": [ 120.990542359258711, 14.676477203898393 ] } },
{ "type": "Feature", "properties": { "name": "Santiago A. De Guzman Elementary School", "city": "Valenzuela City", "star_rating": 5.0, "year": 2019, "intervention": null }, "geometry": { "type": "Point", "coordinates": [ 120.988997381579509, 14.682488184807445 ] } },
{ "type": "Feature", "properties": { "name": "Serrano Elementary School", "city": "Valenzuela City", "star_rating": 5.0, "year": 2019, "intervention": null }, "geometry": { "type": "Point", "coordinates": [ 120.98250439757696, 14.680974778797554 ] } },
{ "type": "Feature", "properties": { "name": "Silvestre Lazaro Elementary School", "city": "Valenzuela City", "star_rating": 5.0, "year": 2019, "intervention": null }, "geometry": { "type": "Point", "coordinates": [ 121.011639293067404, 14.695341071849368 ] } },
{ "type": "Feature", "properties": { "name": "Lingunan Elementary School", "city": "Valenzuela City", "star_rating": 5.0, "year": 2019, "intervention": null }, "geometry": { "type": "Point", "coordinates": [ 120.975878780095982, 14.720037558168512 ] } },
{ "type": "Feature", "properties": { "name": "Dalandanan Elementary School", "city": "Valenzuela City", "star_rating": 5.0, "year": 2019, "intervention": null }, "geometry": { "type": "Point", "coordinates": [ 120.964338115260517, 14.704585084920518 ] } },
{ "type": "Feature", "properties": { "name": "Punturin Elementary School", "city": "Valenzuela City", "star_rating": 5.0, "year": 2019, "intervention": null }, "geometry": { "type": "Point", "coordinates": [ 120.990728913155706, 14.739993573180339 ] } },
{ "type": "Feature", "properties": { "name": "Punturin I (AC Faustino) Elementary School", "city": "Valenzuela City", "star_rating": 5.0, "year": 2019, "intervention": null }, "geometry": { "type": "Point", "coordinates": [ 120.98671958022193, 14.733238265949094 ] } },
{ "type": "Feature", "properties": { "name": "Sitio Sto. Rosario Elementary School", "city": "Valenzuela City", "star_rating": 5.0, "year": 2019, "intervention": null }, "geometry": { "type": "Point", "coordinates": [ 120.97089839941448, 14.703130322401579 ] } },
{ "type": "Feature", "properties": { "name": "Santos Encarnacion Elementary School Annex", "city": "Valenzuela City", "star_rating": 5.0, "year": 2019, "intervention": null }, "geometry": { "type": "Point", "coordinates": [ 120.964373449812641, 14.702618891874932 ] } },
{ "type": "Feature", "properties": { "name": "Antonio M. Serapio Elem. School Annex", "city": "Valenzuela City", "star_rating": 5.0, "year": 2019, "intervention": null }, "geometry": { "type": "Point", "coordinates": [ 121.005932578482174, 14.689015464648989 ] } },
{ "type": "Feature", "properties": { "name": "Constantino Elementary School", "city": "Valenzuela City", "star_rating": 4.0, "year": 2019, "intervention": null }, "geometry": { "type": "Point", "coordinates": [ 120.988245620244058, 14.677759042388598 ] } },
{ "type": "Feature", "properties": { "name": "P.R. San Diego Elementary School", "city": "Valenzuela City", "star_rating": 5.0, "year": 2019, "intervention": null }, "geometry": { "type": "Point", "coordinates": [ 120.949222823092043, 14.698882157243018 ] } },
{ "type": "Feature", "properties": { "name": "Caruhatan West Elementary School", "city": "Valenzuela City", "star_rating": 5.0, "year": 2019, "intervention": null }, "geometry": { "type": "Point", "coordinates": [ 120.974552038349955, 14.681564702201149 ] } },
{ "type": "Feature", "properties": { "name": "Coloong Elementary School (Coloong 1 Rd)", "city": "Valenzuela City", "star_rating": 5.0, "year": 2019, "intervention": null }, "geometry": { "type": "Point", "coordinates": [ 120.944988116227421, 14.725076912152314 ] } },
{ "type": "Feature", "properties": { "name": "Coloong Elementary School (Batong Bakal St)", "city": "Valenzuela City", "star_rating": 5.0, "year": 2019, "intervention": null }, "geometry": { "type": "Point", "coordinates": [ 120.943937715208605, 14.724399584094201 ] } },
{ "type": "Feature", "properties": { "name": "Paltok Elementary School", "city": "Valenzuela City", "star_rating": 5.0, "year": 2019, "intervention": null }, "geometry": { "type": "Point", "coordinates": [ 120.96543219757713, 14.709164341176677 ] } },
{ "type": "Feature", "properties": { "name": "Wawang Pulo Elementary School", "city": "Valenzuela City", "star_rating": 5.0, "year": 2019, "intervention": null }, "geometry": { "type": "Point", "coordinates": [ 120.928017415826105, 14.733110729445199 ] } },
{ "type": "Feature", "properties": { "name": "Tagalag Elementary School", "city": "Valenzuela City", "star_rating": 5.0, "year": 2019, "intervention": null }, "geometry": { "type": "Point", "coordinates": [ 120.938062443131457, 14.72454545825668 ] } },
{ "type": "Feature", "properties": { "name": "Deato Elementary School", "city": "Valenzuela City", "star_rating": 5.0, "year": 2019, "intervention": null }, "geometry": { "type": "Point", "coordinates": [ 120.942238461071966, 14.711422753052108 ] } },
{ "type": "Feature", "properties": { "name": "Isla Elementary School", "city": "Valenzuela City", "star_rating": 5.0, "year": 2019, "intervention": null }, "geometry": { "type": "Point", "coordinates": [ 120.949963608724843, 14.705935353917491 ] } },
{ "type": "Feature", "properties": { "name": "Pinalagad Elementary School Annex", "city": "Valenzuela City", "star_rating": 5.0, "year": 2019, "intervention": null }, "geometry": { "type": "Point", "coordinates": [ 120.969015781970668, 14.681503664107568 ] } },
{ "type": "Feature", "properties": { "name": "Ayala Central School SPED Center", "city": "Zamboanga City", "star_rating": 4.0, "year": 2019, "intervention": null }, "geometry": { "type": "Point", "coordinates": [ 121.950389268147347, 6.961319993556034 ] } },
{ "type": "Feature", "properties": { "name": "Recodo Elementary School", "city": "Zamboanga City", "star_rating": 4.0, "year": 2019, "intervention": null }, "geometry": { "type": "Point", "coordinates": [ 121.957409951144555, 6.955214986678575 ] } },
{ "type": "Feature", "properties": { "name": "Maasin Elementary School", "city": "Zamboanga City", "star_rating": 3.0, "year": 2019, "intervention": null }, "geometry": { "type": "Point", "coordinates": [ 121.98045743317688, 6.95044785248192 ] } },
{ "type": "Feature", "properties": { "name": "Sinunuc Elementary School", "city": "Zamboanga City", "star_rating": 5.0, "year": 2019, "intervention": null }, "geometry": { "type": "Point", "coordinates": [ 122.001692715889533, 6.934939539933025 ] } },
{ "type": "Feature", "properties": { "name": "Southcom Elementary School SPED Center", "city": "Zamboanga City", "star_rating": 5.0, "year": 2019, "intervention": null }, "geometry": { "type": "Point", "coordinates": [ 122.04367939161537, 6.92228761492956 ] } },
{ "type": "Feature", "properties": { "name": "San Jose Gusu Elementary School", "city": "Zamboanga City", "star_rating": 4.0, "year": 2019, "intervention": null }, "geometry": { "type": "Point", "coordinates": [ 122.052604270082142, 6.919956871003659 ] } },
{ "type": "Feature", "properties": { "name": "Baliwasan Central School SPED Center", "city": "Zamboanga City", "star_rating": 4.0, "year": 2019, "intervention": null }, "geometry": { "type": "Point", "coordinates": [ 122.060483184672236, 6.914963181620189 ] } },
{ "type": "Feature", "properties": { "name": "Sta. Maria Central School and SPED Center (Gov. Ramos)", "city": "Zamboanga City", "star_rating": 5.0, "year": 2019, "intervention": null }, "geometry": { "type": "Point", "coordinates": [ 122.069787406743345, 6.930546949623235 ] } },
{ "type": "Feature", "properties": { "name": "Immaculate Conception Elementary School", "city": "Zamboanga City", "star_rating": 1.0, "year": 2019, "intervention": null }, "geometry": { "type": "Point", "coordinates": [ 122.090490042311927, 6.924205881495654 ] } },
{ "type": "Feature", "properties": { "name": "Zamboanga Central and SPED Center (San Jose Road)", "city": "Zamboanga City", "star_rating": 5.0, "year": 2019, "intervention": null }, "geometry": { "type": "Point", "coordinates": [ 122.072806539890436, 6.907619658502349 ] } },
{ "type": "Feature", "properties": { "name": "Zamboanga Central and SPED Center (Carmen Road)", "city": "Zamboanga City", "star_rating": 5.0, "year": 2019, "intervention": null }, "geometry": { "type": "Point", "coordinates": [ 122.072238470902562, 6.907002329331176 ] } },
{ "type": "Feature", "properties": { "name": "Southern City Colleges - WEST CAMPUS", "city": "Zamboanga City", "star_rating": 4.0, "year": 2019, "intervention": null }, "geometry": { "type": "Point", "coordinates": [ 122.053531388700947, 6.919275394928265 ] } },
{ "type": "Feature", "properties": { "name": "Southcom National High School", "city": "Zamboanga City", "star_rating": 2.0, "year": 2019, "intervention": null }, "geometry": { "type": "Point", "coordinates": [ 122.042291909958649, 6.921515113960902 ] } },
{ "type": "Feature", "properties": { "name": "Zamboanga City National High School - West", "city": "Zamboanga City", "star_rating": 1.0, "year": 2019, "intervention": null }, "geometry": { "type": "Point", "coordinates": [ 122.061683090238901, 6.910875978300722 ] } },
{ "type": "Feature", "properties": { "name": "Sangali Elementary School", "city": "Zamboanga City", "star_rating": 5.0, "year": 2019, "intervention": null }, "geometry": { "type": "Point", "coordinates": [ 122.212483711563181, 7.076056121474461 ] } },
{ "type": "Feature", "properties": { "name": "Culianan Learning Center", "city": "Zamboanga City", "star_rating": 5.0, "year": 2019, "intervention": null }, "geometry": { "type": "Point", "coordinates": [ 122.147784069893305, 6.980095787623979 ] } },
{ "type": "Feature", "properties": { "name": "Divisoria Elementary School", "city": "Zamboanga City", "star_rating": 2.0, "year": 2019, "intervention": null }, "geometry": { "type": "Point", "coordinates": [ 122.102829998535441, 6.94706020771198 ] } },
{ "type": "Feature", "properties": { "name": "Maria Clara Lorenzo Lobregat High School", "city": "Zamboanga City", "star_rating": 2.0, "year": 2019, "intervention": null }, "geometry": { "type": "Point", "coordinates": [ 122.100257446497906, 6.943679458833147 ] } },
{ "type": "Feature", "properties": { "name": "Putik Central School", "city": "Zamboanga City", "star_rating": 4.0, "year": 2019, "intervention": "Y" }, "geometry": { "type": "Point", "coordinates": [ 122.093384237657148, 6.938106364035875 ] } },
{ "type": "Feature", "properties": { "name": "Catalina Viuda De Jalon Memorial School", "city": "Zamboanga City", "star_rating": 5.0, "year": 2019, "intervention": null }, "geometry": { "type": "Point", "coordinates": [ 122.079482800682868, 6.936135120045632 ] } },
{ "type": "Feature", "properties": { "name": "Tetuan Central School", "city": "Zamboanga City", "star_rating": 5.0, "year": 2019, "intervention": null }, "geometry": { "type": "Point", "coordinates": [ 122.084901802337612, 6.918961604267023 ] } },
{ "type": "Feature", "properties": { "name": "Mampang Elementary School", "city": "Zamboanga City", "star_rating": 4.0, "year": 2019, "intervention": null }, "geometry": { "type": "Point", "coordinates": [ 122.134361256471124, 6.916310748290669 ] } },
{ "type": "Feature", "properties": { "name": "Talon-Talon Central School", "city": "Zamboanga City", "star_rating": 2.0, "year": 2019, "intervention": null }, "geometry": { "type": "Point", "coordinates": [ 122.114485188562554, 6.909473189475482 ] } },
{ "type": "Feature", "properties": { "name": "Don GEMS Elementary School", "city": "Zamboanga City", "star_rating": 4.0, "year": 2019, "intervention": null }, "geometry": { "type": "Point", "coordinates": [ 122.087866586568879, 6.908800824463667 ] } },
{ "type": "Feature", "properties": { "name": "Sta Barbara Elementary School", "city": "Zamboanga City", "star_rating": 5.0, "year": 2019, "intervention": null }, "geometry": { "type": "Point", "coordinates": [ 122.082466445110271, 6.902758865742385 ] } },
{ "type": "Feature", "properties": { "name": "Zamboanga City High School Main", "city": "Zamboanga City", "star_rating": 4.0, "year": 2019, "intervention": null }, "geometry": { "type": "Point", "coordinates": [ 122.091137086990486, 6.932917687697011 ] } },
{ "type": "Feature", "properties": { "name": "Antonio Serapio Elementary School", "city": "Valenzuela City", "star_rating": 4.0, "year": 2022, "intervention": null }, "geometry": { "type": "Point", "coordinates": [ 121.005944267065047, 14.689032927408594 ] } },
{ "type": "Feature", "properties": { "name": "Arkong  Bato National High School", "city": "Valenzuela City", "star_rating": 5.0, "year": 2022, "intervention": null }, "geometry": { "type": "Point", "coordinates": [ 120.949958124432769, 14.700210008160596 ] } },
{ "type": "Feature", "properties": { "name": "Bagbaguin National High School", "city": "Valenzuela City", "star_rating": 5.0, "year": 2022, "intervention": null }, "geometry": { "type": "Point", "coordinates": [ 121.003596797029218, 14.707998814201781 ] } },
{ "type": "Feature", "properties": { "name": "Bignay National High School", "city": "Valenzuela City", "star_rating": 4.0, "year": 2022, "intervention": null }, "geometry": { "type": "Point", "coordinates": [ 120.999616678185859, 14.743846694519078 ] } },
{ "type": "Feature", "properties": { "name": "Canumay East National High School", "city": "Valenzuela City", "star_rating": 5.0, "year": 2022, "intervention": null }, "geometry": { "type": "Point", "coordinates": [ 120.993770629741164, 14.719477280084996 ] } },
{ "type": "Feature", "properties": { "name": "Canumay West National High School", "city": "Valenzuela City", "star_rating": 5.0, "year": 2022, "intervention": null }, "geometry": { "type": "Point", "coordinates": [ 120.989464084878776, 14.711284677466558 ] } },
{ "type": "Feature", "properties": { "name": "Caruhatan National High School", "city": "Valenzuela City", "star_rating": 5.0, "year": 2022, "intervention": null }, "geometry": { "type": "Point", "coordinates": [ 120.973941320459559, 14.681567555672753 ] } },
{ "type": "Feature", "properties": { "name": "Dalandanan National High School", "city": "Valenzuela City", "star_rating": 5.0, "year": 2022, "intervention": null }, "geometry": { "type": "Point", "coordinates": [ 120.957120736046349, 14.70864735546661 ] } },
{ "type": "Feature", "properties": { "name": "Dalandanan National High School - Veinte Reales Annex", "city": "Valenzuela City", "star_rating": 5.0, "year": 2022, "intervention": null }, "geometry": { "type": "Point", "coordinates": [ 120.957120736046349, 14.70864735546661 ] } },
{ "type": "Feature", "properties": { "name": "Disiplina Village Bignay High School", "city": "Valenzuela City", "star_rating": 5.0, "year": 2022, "intervention": null }, "geometry": { "type": "Point", "coordinates": [ 120.995492326477233, 14.748602771205512 ] } },
{ "type": "Feature", "properties": { "name": "Gen T De Leon National High School", "city": "Valenzuela City", "star_rating": 5.0, "year": 2022, "intervention": null }, "geometry": { "type": "Point", "coordinates": [ 120.999645355924457, 14.687712196695182 ] } },
{ "type": "Feature", "properties": { "name": "Justice Eleazer Delos Santos National High  School", "city": "Valenzuela City", "star_rating": 5.0, "year": 2022, "intervention": null }, "geometry": { "type": "Point", "coordinates": [ 121.006124426476859, 14.687967299422384 ] } },
{ "type": "Feature", "properties": { "name": "Lawang Bato National High School", "city": "Valenzuela City", "star_rating": 3.0, "year": 2022, "intervention": null }, "geometry": { "type": "Point", "coordinates": [ 120.994052835427212, 14.729588662162389 ] } },
{ "type": "Feature", "properties": { "name": "Lingunan High School", "city": "Valenzuela City", "star_rating": 5.0, "year": 2022, "intervention": null }, "geometry": { "type": "Point", "coordinates": [ 120.979363499774863, 14.718719704986777 ] } },
{ "type": "Feature", "properties": { "name": "Malanday National High School", "city": "Valenzuela City", "star_rating": 5.0, "year": 2022, "intervention": null }, "geometry": { "type": "Point", "coordinates": [ 120.953748158584972, 14.71576546514248 ] } },
{ "type": "Feature", "properties": { "name": "Mapulang Lupa National High school", "city": "Valenzuela City", "star_rating": 5.0, "year": 2022, "intervention": null }, "geometry": { "type": "Point", "coordinates": [ 121.009406192245265, 14.701677502394457 ] } },
{ "type": "Feature", "properties": { "name": "Maysan National High School", "city": "Valenzuela City", "star_rating": 4.0, "year": 2022, "intervention": null }, "geometry": { "type": "Point", "coordinates": [ 120.980284185037533, 14.699289256618133 ] } },
{ "type": "Feature", "properties": { "name": "Parada National High School", "city": "Valenzuela City", "star_rating": 5.0, "year": 2022, "intervention": null }, "geometry": { "type": "Point", "coordinates": [ 120.990352002490184, 14.695608506267693 ] } },
{ "type": "Feature", "properties": { "name": "Paso De Blas National High School", "city": "Valenzuela City", "star_rating": 5.0, "year": 2022, "intervention": null }, "geometry": { "type": "Point", "coordinates": [ 120.986901220342986, 14.704393602714697 ] } },
{ "type": "Feature", "properties": { "name": "Pedro Santiago Elementary School", "city": "Valenzuela City", "star_rating": 5.0, "year": 2022, "intervention": null }, "geometry": { "type": "Point", "coordinates": [ 120.995614874327131, 14.710477094360611 ] } },
{ "type": "Feature", "properties": { "name": "Polo National High School", "city": "Valenzuela City", "star_rating": 5.0, "year": 2022, "intervention": null }, "geometry": { "type": "Point", "coordinates": [ 120.946161108686169, 14.707200708483565 ] } },
{ "type": "Feature", "properties": { "name": "Punturin Senior High School ", "city": "Valenzuela City", "star_rating": 4.0, "year": 2022, "intervention": null }, "geometry": { "type": "Point", "coordinates": [ 120.989953805366014, 14.741563408810975 ] } },
{ "type": "Feature", "properties": { "name": "Sitero Francisco National High  School", "city": "Valenzuela City", "star_rating": 5.0, "year": 2022, "intervention": null }, "geometry": { "type": "Point", "coordinates": [ 121.008858983964558, 14.690522481516696 ] } },
{ "type": "Feature", "properties": { "name": "Valenzuela National High School", "city": "Valenzuela City", "star_rating": 3.0, "year": 2022, "intervention": null }, "geometry": { "type": "Point", "coordinates": [ 120.984659505602011, 14.672555258170336 ] } },
{ "type": "Feature", "properties": { "name": "Vicente P. Trinidad National High School", "city": "Valenzuela City", "star_rating": 2.0, "year": 2022, "intervention": null }, "geometry": { "type": "Point", "coordinates": [ 120.983297808596333, 14.739972517435971 ] } },
{ "type": "Feature", "properties": { "name": "Wawangpulo National High School", "city": "Valenzuela City", "star_rating": 5.0, "year": 2022, "intervention": null }, "geometry": { "type": "Point", "coordinates": [ 120.928368155924858, 14.733339594748481 ] } },
{ "type": "Feature", "properties": { "name": "Abelardo G.Tinio ES", "city": "Angeles City", "star_rating": 1.0, "year": 2023, "intervention": null }, "geometry": { "type": "Point", "coordinates": [ 120.61669459387214, 15.144966733097567 ] } },
{ "type": "Feature", "properties": { "name": "Angeles Elementary School", "city": "Angeles City", "star_rating": null, "year": 2023, "intervention": null }, "geometry": { "type": "Point", "coordinates": [ 120.594494356794769, 15.136277936885953 ] } },
{ "type": "Feature", "properties": { "name": "Cutud ES", "city": "Angeles City", "star_rating": 1.0, "year": 2023, "intervention": null }, "geometry": { "type": "Point", "coordinates": [ 120.626767752801271, 15.175586739717849 ] } },
{ "type": "Feature", "properties": { "name": "Enrica Sandico ES", "city": "Angeles City", "star_rating": 3.0, "year": 2023, "intervention": null }, "geometry": { "type": "Point", "coordinates": [ 120.610820467158788, 15.15859178110381 ] } },
{ "type": "Feature", "properties": { "name": "Mining ES", "city": "Angeles City", "star_rating": 1.0, "year": 2023, "intervention": null }, "geometry": { "type": "Point", "coordinates": [ 120.606951712667595, 15.141839533792664 ] } },
{ "type": "Feature", "properties": { "name": "Pineda-Gutierrez ES", "city": "Angeles City", "star_rating": 3.0, "year": 2023, "intervention": null }, "geometry": { "type": "Point", "coordinates": [ 120.615265501366792, 15.150835487317405 ] } },
{ "type": "Feature", "properties": { "name": "Sapalibutad ES", "city": "Angeles City", "star_rating": 3.0, "year": 2023, "intervention": null }, "geometry": { "type": "Point", "coordinates": [ 120.625475457224994, 15.158785651286079 ] } },
{ "type": "Feature", "properties": { "name": "Gov. Rafael L. Lazatin IS", "city": "Angeles City", "star_rating": 2.0, "year": 2023, "intervention": null }, "geometry": { "type": "Point", "coordinates": [ 120.625673380509994, 15.159400998786094 ] } },
{ "type": "Feature", "properties": { "name": "Northville 15 IS", "city": "Angeles City", "star_rating": 4.0, "year": 2023, "intervention": null }, "geometry": { "type": "Point", "coordinates": [ 120.6303652109968, 15.171913886381653 ] } },
{ "type": "Feature", "properties": { "name": "Dr. Clemente N. Dayrit, Sr. ES", "city": "Angeles City", "star_rating": 2.0, "year": 2023, "intervention": null }, "geometry": { "type": "Point", "coordinates": [ 120.593557892497756, 15.144414029043805 ] } },
{ "type": "Feature", "properties": { "name": "EPZA Resettlement ES", "city": "Angeles City", "star_rating": 4.0, "year": 2023, "intervention": null }, "geometry": { "type": "Point", "coordinates": [ 120.622784309993619, 15.165012057645169 ] } },
{ "type": "Feature", "properties": { "name": "Marisol Bliss ES", "city": "Angeles City", "star_rating": 2.0, "year": 2023, "intervention": null }, "geometry": { "type": "Point", "coordinates": [ 120.600502013652033, 15.151095215277678 ] } },
{ "type": "Feature", "properties": { "name": "Pulung Cacutud ES", "city": "Angeles City", "star_rating": 1.0, "year": 2023, "intervention": null }, "geometry": { "type": "Point", "coordinates": [ 120.616288069846647, 15.164285619498653 ] } },
{ "type": "Feature", "properties": { "name": "Sta. Maria ES", "city": "Angeles City", "star_rating": 3.0, "year": 2023, "intervention": null }, "geometry": { "type": "Point", "coordinates": [ 120.583957753992976, 15.164980829299031 ] } },
{ "type": "Feature", "properties": { "name": "Lourdes Northwest ES", "city": "Angeles City", "star_rating": 2.0, "year": 2023, "intervention": null }, "geometry": { "type": "Point", "coordinates": [ 120.584716567585886, 15.14535790184633 ] } },
{ "type": "Feature", "properties": { "name": "M. Nepomuceno ES", "city": "Angeles City", "star_rating": null, "year": 2023, "intervention": null }, "geometry": { "type": "Point", "coordinates": [ 120.581864999380258, 15.138436024983228 ] } },
{ "type": "Feature", "properties": { "name": "Sto. Rosario ES", "city": "Angeles City", "star_rating": null, "year": 2023, "intervention": null }, "geometry": { "type": "Point", "coordinates": [ 120.590118788547585, 15.137155657634638 ] } },
{ "type": "Feature", "properties": { "name": "Anunas ES (Edilberto M. Ganzon ES)", "city": "Angeles City", "star_rating": null, "year": 2023, "intervention": null }, "geometry": { "type": "Point", "coordinates": [ 120.586793985377, 15.178862691067602 ] } },
{ "type": "Feature", "properties": { "name": "Pampang ES", "city": "Angeles City", "star_rating": 2.0, "year": 2023, "intervention": null }, "geometry": { "type": "Point", "coordinates": [ 120.575742448458698, 15.146668448390697 ] } },
{ "type": "Feature", "properties": { "name": "Sapangbato ES", "city": "Angeles City", "star_rating": 1.0, "year": 2023, "intervention": null }, "geometry": { "type": "Point", "coordinates": [ 120.512503088778416, 15.168453832799237 ] } },
{ "type": "Feature", "properties": { "name": "Sta. Teresita ES", "city": "Angeles City", "star_rating": null, "year": 2023, "intervention": null }, "geometry": { "type": "Point", "coordinates": [ 120.585594795810636, 15.149753464320273 ] } },
{ "type": "Feature", "properties": { "name": "Tacondo ES", "city": "Angeles City", "star_rating": 2.0, "year": 2023, "intervention": null }, "geometry": { "type": "Point", "coordinates": [ 120.53789409703387, 15.171366560755915 ] } },
{ "type": "Feature", "properties": { "name": "Amsic IS", "city": "Angeles City", "star_rating": 1.0, "year": 2023, "intervention": null }, "geometry": { "type": "Point", "coordinates": [ 120.567817268517487, 15.159926807771081 ] } },
{ "type": "Feature", "properties": { "name": "Malabanias IS", "city": "Angeles City", "star_rating": 3.0, "year": 2023, "intervention": null }, "geometry": { "type": "Point", "coordinates": [ 120.565817614213287, 15.164257658106877 ] } },
{ "type": "Feature", "properties": { "name": "Gueco Balibago ES", "city": "Angeles City", "star_rating": 2.0, "year": 2023, "intervention": null }, "geometry": { "type": "Point", "coordinates": [ 120.59659461911393, 15.16846828392619 ] } },
{ "type": "Feature", "properties": { "name": "Agusan Elementary School ", "city": "Cagayan De Oro", "star_rating": null, "year": 2023, "intervention": null }, "geometry": null },
{ "type": "Feature", "properties": { "name": "Agusan National High School ", "city": "Cagayan De Oro", "star_rating": null, "year": 2023, "intervention": null }, "geometry": { "type": "Point", "coordinates": [ 124.737830199347556, 8.489291672238069 ] } },
{ "type": "Feature", "properties": { "name": "Bugo Central School ", "city": "Cagayan De Oro", "star_rating": null, "year": 2023, "intervention": null }, "geometry": { "type": "Point", "coordinates": [ 124.752731513222429, 8.503533822823702 ] } },
{ "type": "Feature", "properties": { "name": "Puerto Elementary School ", "city": "Cagayan De Oro", "star_rating": null, "year": 2023, "intervention": null }, "geometry": { "type": "Point", "coordinates": [ 124.748355771466947, 8.499275976062439 ] } },
{ "type": "Feature", "properties": { "name": "Cugman Elementary School ", "city": "Cagayan De Oro", "star_rating": null, "year": 2023, "intervention": null }, "geometry": { "type": "Point", "coordinates": [ 124.702973478351609, 8.470316644508451 ] } },
{ "type": "Feature", "properties": { "name": "East City Central School ", "city": "Cagayan De Oro", "star_rating": null, "year": 2023, "intervention": null }, "geometry": { "type": "Point", "coordinates": [ 124.663682231978399, 8.481613830639231 ] } },
{ "type": "Feature", "properties": { "name": "Gusa East National High School ", "city": "Cagayan De Oro", "star_rating": null, "year": 2023, "intervention": null }, "geometry": { "type": "Point", "coordinates": [ 124.681097256025325, 8.469303416232741 ] } },
{ "type": "Feature", "properties": { "name": "Gusa Elementary School ", "city": "Cagayan De Oro", "star_rating": null, "year": 2023, "intervention": null }, "geometry": { "type": "Point", "coordinates": [ 124.682712557722155, 8.476215695828067 ] } },
{ "type": "Feature", "properties": { "name": "Camaman-an Elementary School ", "city": "Cagayan De Oro", "star_rating": null, "year": 2023, "intervention": null }, "geometry": { "type": "Point", "coordinates": [ 124.659034255883597, 8.472916003633285 ] } },
{ "type": "Feature", "properties": { "name": "CDO National High School ", "city": "Cagayan De Oro", "star_rating": null, "year": 2023, "intervention": null }, "geometry": { "type": "Point", "coordinates": [ 124.650550889792058, 8.469532116682339 ] } },
{ "type": "Feature", "properties": { "name": "Corrales Elementary School ", "city": "Cagayan De Oro", "star_rating": null, "year": 2023, "intervention": null }, "geometry": { "type": "Point", "coordinates": [ 124.653852363575112, 8.490460818545435 ] } },
{ "type": "Feature", "properties": { "name": "South City Central ", "city": "Cagayan De Oro", "star_rating": null, "year": 2023, "intervention": null }, "geometry": { "type": "Point", "coordinates": [ 124.647800891546169, 8.472831942398384 ] } },
{ "type": "Feature", "properties": { "name": "Camaman-an High School ", "city": "Cagayan De Oro", "star_rating": null, "year": 2023, "intervention": null }, "geometry": { "type": "Point", "coordinates": [ 124.660745064464962, 8.459140571515263 ] } },
{ "type": "Feature", "properties": { "name": "City Central School ", "city": "Cagayan De Oro", "star_rating": null, "year": 2023, "intervention": null }, "geometry": { "type": "Point", "coordinates": [ 124.63699295968182, 8.473440500174204 ] } },
{ "type": "Feature", "properties": { "name": "Indahag Elementary School ", "city": "Cagayan De Oro", "star_rating": null, "year": 2023, "intervention": null }, "geometry": { "type": "Point", "coordinates": [ 124.667555555879488, 8.422059348382906 ] } },
{ "type": "Feature", "properties": { "name": "Macasandig Elementary School ", "city": "Cagayan De Oro", "star_rating": null, "year": 2023, "intervention": null }, "geometry": { "type": "Point", "coordinates": [ 124.644038074614642, 8.463495136863312 ] } },
{ "type": "Feature", "properties": { "name": "Taguanao Elementary School ", "city": "Cagayan De Oro", "star_rating": null, "year": 2023, "intervention": null }, "geometry": { "type": "Point", "coordinates": [ 124.637800652617926, 8.425084206174736 ] } },
{ "type": "Feature", "properties": { "name": "Bonbon Elementary School", "city": "Cagayan De Oro", "star_rating": null, "year": 2023, "intervention": null }, "geometry": { "type": "Point", "coordinates": [ 124.648507282725049, 8.508013564609712 ] } },
{ "type": "Feature", "properties": { "name": "Bulua Central School", "city": "Cagayan De Oro", "star_rating": null, "year": 2023, "intervention": null }, "geometry": { "type": "Point", "coordinates": [ 124.616374373843769, 8.503263508622608 ] } },
{ "type": "Feature", "properties": { "name": "Bulua National High School ", "city": "Cagayan De Oro", "star_rating": null, "year": 2023, "intervention": null }, "geometry": { "type": "Point", "coordinates": [ 124.606984812746973, 8.505123906481501 ] } },
{ "type": "Feature", "properties": { "name": "Canitoan Elementary School", "city": "Cagayan De Oro", "star_rating": null, "year": 2023, "intervention": null }, "geometry": { "type": "Point", "coordinates": [ 124.592808957022683, 8.472837367150527 ] } },
{ "type": "Feature", "properties": { "name": "Bayanga Elementary School", "city": "Cagayan De Oro", "star_rating": null, "year": 2023, "intervention": null }, "geometry": { "type": "Point", "coordinates": [ 124.603633587030458, 8.359026617861655 ] } },
{ "type": "Feature", "properties": { "name": "Fr. W. Mastersons Elementary School", "city": "Cagayan De Oro", "star_rating": null, "year": 2023, "intervention": null }, "geometry": { "type": "Point", "coordinates": [ 124.620315382841184, 8.437908232103352 ] } },
{ "type": "Feature", "properties": { "name": "Mambuaya Elementary School ", "city": "Cagayan De Oro", "star_rating": null, "year": 2023, "intervention": null }, "geometry": { "type": "Point", "coordinates": [ 124.596933293689077, 8.326421082637808 ] } },
{ "type": "Feature", "properties": { "name": "West City Central School ", "city": "Cagayan De Oro", "star_rating": null, "year": 2023, "intervention": null }, "geometry": { "type": "Point", "coordinates": [ 124.637002649657603, 8.473429456158426 ] } },
{ "type": "Feature", "properties": { "name": "Cabaluay National High School", "city": "Zamboanga City", "star_rating": 1.0, "year": 2023, "intervention": null }, "geometry": { "type": "Point", "coordinates": [ 122.178225106709149, 6.993939375527735 ] } },
{ "type": "Feature", "properties": { "name": "Cabaluay Elementary School", "city": "Zamboanga City", "star_rating": 2.0, "year": 2023, "intervention": null }, "geometry": { "type": "Point", "coordinates": [ 122.172030756487516, 6.992700142919916 ] } },
{ "type": "Feature", "properties": { "name": "Culianan Learning Center", "city": "Zamboanga City", "star_rating": 4.0, "year": 2023, "intervention": null }, "geometry": { "type": "Point", "coordinates": [ 122.147784045649828, 6.980094600254713 ] } },
{ "type": "Feature", "properties": { "name": "Culianan National High School", "city": "Zamboanga City", "star_rating": 4.0, "year": 2023, "intervention": null }, "geometry": { "type": "Point", "coordinates": [ 122.145306647988079, 6.972339429383391 ] } },
{ "type": "Feature", "properties": { "name": "Taluksangay National High School", "city": "Zamboanga City", "star_rating": 3.0, "year": 2023, "intervention": null }, "geometry": { "type": "Point", "coordinates": [ 123.296667789489433, 7.838302050115655 ] } },
{ "type": "Feature", "properties": { "name": "Taluksangay Elementary School", "city": "Zamboanga City", "star_rating": 3.0, "year": 2023, "intervention": null }, "geometry": { "type": "Point", "coordinates": [ 122.182670890767412, 6.951435069568438 ] } },
{ "type": "Feature", "properties": { "name": "Talabaan Elementary School", "city": "Zamboanga City", "star_rating": 4.0, "year": 2023, "intervention": null }, "geometry": { "type": "Point", "coordinates": [ 122.175416559014224, 6.95708325777115 ] } },
{ "type": "Feature", "properties": { "name": "Mercedes National School", "city": "Zamboanga City", "star_rating": 1.0, "year": 2023, "intervention": null }, "geometry": { "type": "Point", "coordinates": [ 122.144977300154878, 6.959775551102776 ] } },
{ "type": "Feature", "properties": { "name": "Mercedes Elementary School", "city": "Zamboanga City", "star_rating": 1.0, "year": 2023, "intervention": null }, "geometry": { "type": "Point", "coordinates": [ 122.149116800154857, 6.957486750505166 ] } },
{ "type": "Feature", "properties": { "name": "Pasabolong Elementary School", "city": "Zamboanga City", "star_rating": 1.0, "year": 2023, "intervention": null }, "geometry": { "type": "Point", "coordinates": [ 122.130863019213294, 6.973229467651668 ] } },
{ "type": "Feature", "properties": { "name": "Zambowood Elementary School", "city": "Zamboanga City", "star_rating": 2.0, "year": 2023, "intervention": null }, "geometry": { "type": "Point", "coordinates": [ 122.132613202931921, 6.941569839248138 ] } },
{ "type": "Feature", "properties": { "name": "Boalan Elementary School", "city": "Zamboanga City", "star_rating": 2.0, "year": 2023, "intervention": null }, "geometry": { "type": "Point", "coordinates": [ 122.119741967309409, 6.948286195926993 ] } },
{ "type": "Feature", "properties": { "name": "Divisoria Elementary School", "city": "Zamboanga City", "star_rating": 4.0, "year": 2023, "intervention": null }, "geometry": { "type": "Point", "coordinates": [ 122.102792380127624, 6.946764845231596 ] } },
{ "type": "Feature", "properties": { "name": "MCLLNHS", "city": "Zamboanga City", "star_rating": 1.0, "year": 2023, "intervention": null }, "geometry": { "type": "Point", "coordinates": [ 122.100253607150378, 6.943665283172062 ] } },
{ "type": "Feature", "properties": { "name": "Lunzuran Elementary School", "city": "Zamboanga City", "star_rating": 1.0, "year": 2023, "intervention": null }, "geometry": { "type": "Point", "coordinates": [ 122.091152449818154, 6.959433162595576 ] } },
{ "type": "Feature", "properties": { "name": "Putik Central School", "city": "Zamboanga City", "star_rating": 1.0, "year": 2023, "intervention": null }, "geometry": { "type": "Point", "coordinates": [ 122.093384531686766, 6.938104256547049 ] } },
{ "type": "Feature", "properties": { "name": "Guiwan Elementary School", "city": "Zamboanga City", "star_rating": 4.0, "year": 2023, "intervention": null }, "geometry": { "type": "Point", "coordinates": [ 122.093802399582842, 6.929586325801817 ] } },
{ "type": "Feature", "properties": { "name": "Tetuan Central School", "city": "Zamboanga City", "star_rating": 3.0, "year": 2023, "intervention": null }, "geometry": { "type": "Point", "coordinates": [ 122.084897026431051, 6.918964302066504 ] } },
{ "type": "Feature", "properties": { "name": "ZCHS â€“ Main", "city": "Zamboanga City", "star_rating": 2.0, "year": 2023, "intervention": null }, "geometry": { "type": "Point", "coordinates": [ 122.091120203586811, 6.932892878912457 ] } },
{ "type": "Feature", "properties": { "name": "Tugbungan Elementary School", "city": "Zamboanga City", "star_rating": 3.0, "year": 2023, "intervention": null }, "geometry": { "type": "Point", "coordinates": [ 122.104245915082842, 6.918864377147045 ] } },
{ "type": "Feature", "properties": { "name": "Arena Blanco West National High School", "city": "Zamboanga City", "star_rating": null, "year": 2023, "intervention": null }, "geometry": { "type": "Point", "coordinates": [ 122.15262907980383, 6.92010589937192 ] } },
{ "type": "Feature", "properties": { "name": "Arena Blanco National High School", "city": "Zamboanga City", "star_rating": null, "year": 2023, "intervention": null }, "geometry": { "type": "Point", "coordinates": [ 122.15262907980383, 6.92010589937192 ] } },
{ "type": "Feature", "properties": { "name": "Arena Blanco East Elementary School", "city": "Zamboanga City", "star_rating": null, "year": 2023, "intervention": null }, "geometry": { "type": "Point", "coordinates": [ 122.152915469130903, 6.919743390081792 ] } },
{ "type": "Feature", "properties": { "name": "Mampang Elementary School", "city": "Zamboanga City", "star_rating": 1.0, "year": 2023, "intervention": null }, "geometry": { "type": "Point", "coordinates": [ 122.134361091869863, 6.916310354092111 ] } },
{ "type": "Feature", "properties": { "name": "Talon-Talon Elementary School", "city": "Zamboanga City", "star_rating": 4.0, "year": 2023, "intervention": null }, "geometry": { "type": "Point", "coordinates": [ 122.114483996983239, 6.909475799002485 ] } },
{ "type": "Feature", "properties": { "name": "Talon-Talon National High School", "city": "Zamboanga City", "star_rating": 1.0, "year": 2023, "intervention": null }, "geometry": { "type": "Point", "coordinates": [ 122.111417708640062, 6.908929698998433 ] } },
{ "type": "Feature", "properties": { "name": "Curuan Elementary School ", "city": "Zamboanga City", "star_rating": 4.0, "year": 2023, "intervention": null }, "geometry": { "type": "Point", "coordinates": [ 122.233127574648435, 7.205911503534194 ] } },
{ "type": "Feature", "properties": { "name": "Curuan National High School", "city": "Zamboanga City", "star_rating": 4.0, "year": 2023, "intervention": null }, "geometry": { "type": "Point", "coordinates": [ 122.234293696088855, 7.205717589941822 ] } },
{ "type": "Feature", "properties": { "name": "Cristino N.  Paragas Memorial ES", "city": "Zamboanga City", "star_rating": 1.0, "year": 2023, "intervention": null }, "geometry": { "type": "Point", "coordinates": [ 122.218763116612863, 7.183241986157113 ] } },
{ "type": "Feature", "properties": { "name": "Lubigan National High School ", "city": "Zamboanga City", "star_rating": 1.0, "year": 2023, "intervention": null }, "geometry": { "type": "Point", "coordinates": [ 122.232858496372614, 7.141100331466518 ] } },
{ "type": "Feature", "properties": { "name": "Lubigan Elementary School", "city": "Zamboanga City", "star_rating": 1.0, "year": 2023, "intervention": null }, "geometry": { "type": "Point", "coordinates": [ 122.233699311904658, 7.146283762545386 ] } },
{ "type": "Feature", "properties": { "name": "Don Francisco Memorial School ", "city": "Zamboanga City", "star_rating": 4.0, "year": 2023, "intervention": null }, "geometry": { "type": "Point", "coordinates": [ 122.229344618460303, 7.126144627514682 ] } },
{ "type": "Feature", "properties": { "name": "Bolong Elementary School ", "city": "Zamboanga City", "star_rating": 1.0, "year": 2023, "intervention": null }, "geometry": { "type": "Point", "coordinates": [ 122.236791381183721, 7.099406534728144 ] } },
{ "type": "Feature", "properties": { "name": "Sangali Elementary School ", "city": "Zamboanga City", "star_rating": 2.0, "year": 2023, "intervention": null }, "geometry": { "type": "Point", "coordinates": [ 122.212480855879065, 7.076060369383028 ] } },
{ "type": "Feature", "properties": { "name": "Sangali National High School", "city": "Zamboanga City", "star_rating": 2.0, "year": 2023, "intervention": null }, "geometry": { "type": "Point", "coordinates": [ 122.205472624956414, 7.075206273978609 ] } },
{ "type": "Feature", "properties": { "name": "Victoria Elementary School ", "city": "Zamboanga City", "star_rating": 3.0, "year": 2023, "intervention": null }, "geometry": { "type": "Point", "coordinates": [ 122.193266526431572, 7.049243769090975 ] } },
{ "type": "Feature", "properties": { "name": "Manicahan National High School ", "city": "Zamboanga City", "star_rating": 1.0, "year": 2023, "intervention": null }, "geometry": { "type": "Point", "coordinates": [ 122.186491347600693, 7.023032085147394 ] } },
{ "type": "Feature", "properties": { "name": "Manicahan Elementary School", "city": "Zamboanga City", "star_rating": 1.0, "year": 2023, "intervention": null }, "geometry": { "type": "Point", "coordinates": [ 122.201124559756991, 7.019286101641924 ] } },
{ "type": "Feature", "properties": { "name": "WMSU", "city": "Zamboanga City", "star_rating": 1.0, "year": 2023, "intervention": null }, "geometry": { "type": "Point", "coordinates": [ 122.061372876679684, 6.913589069397536 ] } },
{ "type": "Feature", "properties": { "name": "Regional Science High School", "city": "Zamboanga City", "star_rating": 2.0, "year": 2023, "intervention": null }, "geometry": { "type": "Point", "coordinates": [ 122.052630307448013, 6.932646039136922 ] } },
{ "type": "Feature", "properties": { "name": "Don Pablo Lorenzo Memorial High School", "city": "Zamboanga City", "star_rating": 4.0, "year": 2023, "intervention": null }, "geometry": { "type": "Point", "coordinates": [ 122.059270196983533, 6.928082699141668 ] } },
{ "type": "Feature", "properties": { "name": "Cabatangan Elemetary School", "city": "Zamboanga City", "star_rating": 1.0, "year": 2023, "intervention": null }, "geometry": { "type": "Point", "coordinates": [ 122.054668961406335, 6.950732067706955 ] } },
{ "type": "Feature", "properties": { "name": "Pasonanca Elementary School", "city": "Zamboanga City", "star_rating": 1.0, "year": 2023, "intervention": null }, "geometry": { "type": "Point", "coordinates": [ 122.073113806805793, 6.948164733244802 ] } },
{ "type": "Feature", "properties": { "name": "Upper Pasonanca Elementary School", "city": "Zamboanga City", "star_rating": 3.0, "year": 2023, "intervention": null }, "geometry": { "type": "Point", "coordinates": [ 122.072156233196267, 6.961974292505735 ] } },
{ "type": "Feature", "properties": { "name": "Sta. Maria Central School", "city": "Zamboanga City", "star_rating": 4.0, "year": 2023, "intervention": null }, "geometry": { "type": "Point", "coordinates": [ 122.069722717058923, 6.93020054224496 ] } },
{ "type": "Feature", "properties": { "name": "Maasin Learning Center", "city": "Zamboanga City", "star_rating": 1.0, "year": 2023, "intervention": null }, "geometry": { "type": "Point", "coordinates": [ 121.980512032830319, 6.950265025702653 ] } },
{ "type": "Feature", "properties": { "name": "Sinunuc Elementary School", "city": "Zamboanga City", "star_rating": 1.0, "year": 2023, "intervention": null }, "geometry": { "type": "Point", "coordinates": [ 122.001688955073959, 6.934941410926428 ] } },
{ "type": "Feature", "properties": { "name": "Southcom National High School", "city": "Zamboanga City", "star_rating": 4.0, "year": 2023, "intervention": null }, "geometry": { "type": "Point", "coordinates": [ 122.042295838087796, 6.921517299092424 ] } },
{ "type": "Feature", "properties": { "name": "Southcom Elementary School", "city": "Zamboanga City", "star_rating": 4.0, "year": 2023, "intervention": null }, "geometry": { "type": "Point", "coordinates": [ 122.043680596983464, 6.922294533434097 ] } },
{ "type": "Feature", "properties": { "name": "WMSU - ILS", "city": "Zamboanga City", "star_rating": 5.0, "year": 2023, "intervention": null }, "geometry": { "type": "Point", "coordinates": [ 122.062053100253181, 6.914145139039226 ] } },
{ "type": "Feature", "properties": { "name": "Labuan Central School", "city": "Zamboanga City", "star_rating": 1.0, "year": 2023, "intervention": null }, "geometry": { "type": "Point", "coordinates": [ 121.902328226431436, 7.089947834945155 ] } },
{ "type": "Feature", "properties": { "name": "Ramon Enriquez High School", "city": "Zamboanga City", "star_rating": 1.0, "year": 2023, "intervention": null }, "geometry": { "type": "Point", "coordinates": [ 121.901261226431828, 7.090029800374859 ] } },
{ "type": "Feature", "properties": { "name": "Patalon Elementary School", "city": "Zamboanga City", "star_rating": 1.0, "year": 2023, "intervention": null }, "geometry": { "type": "Point", "coordinates": [ 121.910599984717692, 7.0511903965172 ] } },
{ "type": "Feature", "properties": { "name": "San Ramon Elementary School", "city": "Zamboanga City", "star_rating": 2.0, "year": 2023, "intervention": null }, "geometry": { "type": "Point", "coordinates": [ 121.926934593332106, 6.992727629398227 ] } },
{ "type": "Feature", "properties": { "name": "Talisayan Elementary School", "city": "Zamboanga City", "star_rating": 4.0, "year": 2023, "intervention": null }, "geometry": { "type": "Point", "coordinates": [ 121.92971477123136, 6.985073878973647 ] } },
{ "type": "Feature", "properties": { "name": "Talisayan National High School", "city": "Zamboanga City", "star_rating": 4.0, "year": 2023, "intervention": null }, "geometry": { "type": "Point", "coordinates": [ 121.932023367534342, 6.985643499570165 ] } },
{ "type": "Feature", "properties": { "name": "Ayala National High School", "city": "Zamboanga City", "star_rating": 2.0, "year": 2023, "intervention": null }, "geometry": { "type": "Point", "coordinates": [ 121.949265055878939, 6.962623730615561 ] } },
{ "type": "Feature", "properties": { "name": "Ayala Central School SPED Center", "city": "Zamboanga City", "star_rating": null, "year": 2023, "intervention": null }, "geometry": { "type": "Point", "coordinates": [ 121.950399641677294, 6.961337656440425 ] } },
{ "type": "Feature", "properties": { "name": "Recodo National High School", "city": "Zamboanga City", "star_rating": 1.0, "year": 2023, "intervention": null }, "geometry": { "type": "Point", "coordinates": [ 121.965178853484076, 6.955678831272237 ] } },
{ "type": "Feature", "properties": { "name": "Recodo Elementary School", "city": "Zamboanga City", "star_rating": 1.0, "year": 2023, "intervention": null }, "geometry": { "type": "Point", "coordinates": [ 121.957429726431272, 6.955213996198468 ] } },
{ "type": "Feature", "properties": { "name": "Cawit Elementary School", "city": "Zamboanga City", "star_rating": 1.0, "year": 2023, "intervention": null }, "geometry": { "type": "Point", "coordinates": [ 121.973634824354548, 6.956900729127384 ] } },
{ "type": "Feature", "properties": { "name": "Tulungatong Elementary School", "city": "Zamboanga City", "star_rating": 3.0, "year": 2023, "intervention": null }, "geometry": { "type": "Point", "coordinates": [ 121.959339185663083, 6.972508634024789 ] } },
{ "type": "Feature", "properties": { "name": "Tulungatong National High School", "city": "Zamboanga City", "star_rating": 3.0, "year": 2023, "intervention": null }, "geometry": { "type": "Point", "coordinates": [ 121.960856616628334, 6.972465401857194 ] } },
{ "type": "Feature", "properties": { "name": "John Spirig Elementary School", "city": "Zamboanga City", "star_rating": 1.0, "year": 2023, "intervention": null }, "geometry": { "type": "Point", "coordinates": [ 122.047339096983478, 6.915368164720603 ] } },
{ "type": "Feature", "properties": { "name": "Catalina Viuda de Jalon Elementary School", "city": "Zamboanga City", "star_rating": 1.0, "year": 2023, "intervention": null }, "geometry": { "type": "Point", "coordinates": [ 122.079481696106299, 6.936135796345587 ] } },
{ "type": "Feature", "properties": { "name": "ZNHS - West", "city": "Zamboanga City", "star_rating": 2.0, "year": 2023, "intervention": null }, "geometry": { "type": "Point", "coordinates": [ 122.06168139623037, 6.910876884053169 ] } },
{ "type": "Feature", "properties": { "name": "Zamboanga Central School", "city": "Zamboanga City", "star_rating": 3.0, "year": 2023, "intervention": null }, "geometry": { "type": "Point", "coordinates": [ 122.072237996985095, 6.907002398986138 ] } },
{ "type": "Feature", "properties": { "name": "Canelar Elementary School", "city": "Zamboanga City", "star_rating": 1.0, "year": 2023, "intervention": null }, "geometry": { "type": "Point", "coordinates": [ 122.069515698337071, 6.915426636955037 ] } },
{ "type": "Feature", "properties": { "name": "Baliwasan Senior High School", "city": "Zamboanga City", "star_rating": 2.0, "year": 2023, "intervention": null }, "geometry": { "type": "Point", "coordinates": [ 122.067208290581661, 6.910984254058548 ] } },
{ "type": "Feature", "properties": { "name": "Baliwasan Central School", "city": "Zamboanga City", "star_rating": 2.0, "year": 2023, "intervention": null }, "geometry": { "type": "Point", "coordinates": [ 122.060484739676269, 6.914965607933618 ] } },
{ "type": "Feature", "properties": { "name": "Sta. Barbara Elementary School", "city": "Zamboanga City", "star_rating": 4.0, "year": 2023, "intervention": null }, "geometry": { "type": "Point", "coordinates": [ 122.08246013499172, 6.9027586122299 ] } },
{ "type": "Feature", "properties": { "name": "Don Gregorio Evangelista Memorial School", "city": "Zamboanga City", "star_rating": 4.0, "year": 2023, "intervention": null }, "geometry": { "type": "Point", "coordinates": [ 122.087861106687029, 6.908806286259707 ] } },
{ "type": "Feature", "properties": { "name": "San Jose Gusu Elementary School", "city": "Zamboanga City", "star_rating": 2.0, "year": 2023, "intervention": null }, "geometry": { "type": "Point", "coordinates": [ 122.052608582249718, 6.919948309493147 ] } },
{ "type": "Feature", "properties": { "name": "Southern City Colleges - West", "city": "Zamboanga City", "star_rating": 4.0, "year": 2023, "intervention": null }, "geometry": { "type": "Point", "coordinates": [ 122.053534229798458, 6.919274859445092 ] } },
{ "type": "Feature", "properties": { "name": "ICAS de Calarian", "city": "Zamboanga City", "star_rating": 1.0, "year": 2023, "intervention": null }, "geometry": { "type": "Point", "coordinates": [ 122.044756862791687, 6.921299228249604 ] } }
]
}
